Name,Phone_no,Land_size,Address,Latitude,Longitude,District, Taluka,Taluka,Age,Email,Other_info
Nitara Iyengar,6990966542,8.0,"Akola , Maharashtra",19.5406,74.0054,Ahmadnagar , Akole,,,,
Madhav Krish,4103580091,9.0,"            Sangamner , Maharashtra",19.59567,74.19427, Ahmadnagar , Sangamner ,,,,
Zaina Jha,2235624729,8.0,"            Kopargaon , Maharashtra",19.89428,74.48211, Ahmadnagar , Kopargaon ,,,,
Anvi Lal,9373326184,7.0,"                Rahta , Maharashtra",19.70958,74.47988, Ahmadnagar , Rahta ,,,,
Parinaaz Chahal,7454229879,4.0,"           Shrirampur , Maharashtra",19.61944,74.65683, Ahmadnagar , Shrirampur ,,,,
Sahil Ramakrishnan,9957674465,7.0,"               Nevasa , Maharashtra",19.47509,74.93026, Ahmadnagar , Nevasa ,,,,
Yashvi Sinha,7987044756,2.0,"             Shevgaon , Maharashtra",19.36019,75.21282, Ahmadnagar , Shevgaon ,,,,
Kabir Ghose,3637541838,3.0,"             Pathardi , Maharashtra",19.17696,75.17458, Ahmadnagar , Pathardi ,,,,
Shanaya Chacko,2272207366,5.0,"                Nagar , Maharashtra",19.05626,74.8207, Ahmadnagar , Nagar ,,,,
Arnav Dora,4902594580,5.0,"               Rahuri , Maharashtra",19.39094,74.64771, Ahmadnagar , Rahuri ,,,,
Rohan Taneja,1174328143,6.0,"               Parner , Maharashtra",19.1589,74.39173, Ahmadnagar , Parner ,,,,
Sara Bera,6416473350,8.0,"            Shrigonda , Maharashtra",18.61214,74.69947, Ahmadnagar , Shrigonda ,,,,
Gokul Sandal,2395804270,2.0,"               Karjat , Maharashtra",18.55079,75.00907, Ahmadnagar , Karjat ,,,,
Ivana Bhavsar,7814425299,3.0,"              Jamkhed , Maharashtra",18.73431,75.31063, Ahmadnagar , Jamkhed ,,,,
Tushar Jain,9495239587,8.0,"              Telhara , Maharashtra",21.02623,76.84034,      Akola , Telhara ,,,,
Ahana  Garg,9590169237,2.0,"              Telhara , Maharashtra",21.02623,76.84034,      Akola , Telhara ,,,,
Prerak Barad,9832166559,1.0,"                 Akot , Maharashtra",21.09742,77.05497,      Akola , Akot ,,,,
Samarth Kale,7703688049,7.0,"                 Akot , Maharashtra",21.09742,77.05497,      Akola , Akot ,,,,
Neysa Suresh,8628870465,3.0,"              Balapur , Maharashtra",20.66342,76.77383,      Akola , Balapur ,,,,
Priyansh Dixit,9277834967,6.0,"              Balapur , Maharashtra",20.66342,76.77383,      Akola , Balapur ,,,,
Mahika Sahni,9466713593,10.0,"                Akola , Maharashtra",20.70535,77.00218,      Akola , Akola ,,,,
Tarini Bedi,2571865892,6.0,"                Akola , Maharashtra",20.70535,77.00218,      Akola , Akola ,,,,
Biju Uppal,9203723095,1.0,"           Murtijapur , Maharashtra",20.73659,77.36561,      Akola , Murtijapur ,,,,
Dishani Kapadia,8189004472,8.0,"           Murtijapur , Maharashtra",20.73659,77.36561,      Akola , Murtijapur ,,,,
Amani Raman,6628004940,1.0,"                Patur , Maharashtra",20.46068,76.9389,      Akola , Patur ,,,,
Tejas Warrior,7551846442,4.0,"                Patur , Maharashtra",20.46068,76.9389,      Akola , Patur ,,,,
Shanaya Rastogi,9421655675,5.0,"          Barshitakli , Maharashtra",20.57578,77.0619,      Akola , Barshitakli ,,,,
Seher Bala,9333664782,10.0,"          Barshitakli , Maharashtra",20.57578,77.0619,      Akola , Barshitakli ,,,,
Jivika Devi,3541251913,6.0,"               Dharni , Maharashtra",21.55701,76.89288,   Amravati , Dharni ,,,,
Mannat Dugal,5025467759,3.0,"               Dharni , Maharashtra",21.55701,76.89288,   Amravati , Dharni ,,,,
Ishaan Gokhale,6137731223,10.0,"          Chikhaldara , Maharashtra",21.40126,77.32664,   Amravati , Chikhaldara ,,,,
Priyansh Kala,8471315289,5.0,"          Chikhaldara , Maharashtra",21.40126,77.32664,   Amravati , Chikhaldara ,,,,
Shanaya Varkey,9432285920,2.0,"      Anjangaon Surji , Maharashtra",21.1699,77.30953,   Amravati , Anjangaon Surji ,,,,
Vihaan Contractor,5486769995,3.0,"      Anjangaon Surji , Maharashtra",21.1699,77.30953,   Amravati , Anjangaon Surji ,,,,
Shanaya Jain,5547375580,10.0,"             Achalpur , Maharashtra",21.25512,77.51181,   Amravati , Achalpur ,,,,
Saira Halder,5421856377,2.0,"             Achalpur , Maharashtra",21.25512,77.51181,   Amravati , Achalpur ,,,,
Hansh Majumdar,9644472696,9.0,"         Chandurbazar , Maharashtra",21.23765,77.74687,   Amravati , Chandurbazar ,,,,
Adira Deshmukh,7421730061,7.0,"         Chandurbazar , Maharashtra",21.23765,77.74687,   Amravati , Chandurbazar ,,,,
Pihu Dalal,9724800265,4.0,"               Morshi , Maharashtra",21.32977,78.01173,   Amravati , Morshi ,,,,
Biju Shenoy,7401262666,6.0,"               Morshi , Maharashtra",21.32977,78.01173,   Amravati , Morshi ,,,,
Taimur Trivedi,3999817689,8.0,"                Worud , Maharashtra",21.47677,78.26783,   Amravati , Worud ,,,,
Aarav Bansal,9328614458,2.0,"                Worud , Maharashtra",21.47677,78.26783,   Amravati , Worud ,,,,
Dhanuk Iyer,9671264820,2.0,"                Teosa , Maharashtra",21.07657,78.04517,   Amravati , Teosa ,,,,
Jayesh Master,7489713158,9.0,"                Teosa , Maharashtra",21.07657,78.04517,   Amravati , Teosa ,,,,
Arnav Walia,3928094397,3.0,"             Amravati , Maharashtra",20.93333,77.75,   Amravati , Amravati ,,,,
Jivika Mani,8287768815,6.0,"             Amravati , Maharashtra",20.93333,77.75,   Amravati , Amravati ,,,,
Indrans Aggarwal,2857768112,4.0,"             Bhatkuli , Maharashtra",20.99302,77.61909,   Amravati , Bhatkuli ,,,,
Onkar Batra,9599281291,10.0,"             Bhatkuli , Maharashtra",20.99302,77.61909,   Amravati , Bhatkuli ,,,,
Vritika Chawla,3900703903,7.0,"             Daryapur , Maharashtra",20.92903,77.33123,   Amravati , Daryapur ,,,,
Lakshay Krishna,7866788970,10.0,"             Daryapur , Maharashtra",20.92903,77.33123,   Amravati , Daryapur ,,,,
Zain Ben,4690512008,7.0," Nandgaon-Khandeshwar , Maharashtra",20.69196,77.77844,   Amravati , Nandgaon-Khandeshwar ,,,,
Pranay Sankar,8848191186,4.0," Nandgaon-Khandeshwar , Maharashtra",20.69196,77.77844,   Amravati , Nandgaon-Khandeshwar ,,,,
Elakshi Baria,7820061427,6.0,"      Chandur Railway , Maharashtra",20.81538,77.97886,   Amravati , Chandur Railway ,,,,
Riya Savant,5170911578,5.0,"      Chandur Railway , Maharashtra",20.81538,77.97886,   Amravati , Chandur Railway ,,,,
Farhan Sunder,803724429,10.0,"   Dhamangaon Railway , Maharashtra",20.79384,78.13764,   Amravati , Dhamangaon Railway ,,,,
Bhavin Mahal,8651789891,5.0,"   Dhamangaon Railway , Maharashtra",20.79384,78.13764,   Amravati , Dhamangaon Railway ,,,,
Mishti Kannan,6107866975,7.0,"               Kannad , Maharashtra",20.26045,75.1369, Aurangabad , Kannad ,,,,
Diya Tara,4250502414,8.0,"              Soegaon , Maharashtra",20.59129,75.6143, Aurangabad , Soegaon ,,,,
Riaan Tara,4610585583,5.0,"               Sillod , Maharashtra",20.3018,75.65222, Aurangabad , Sillod ,,,,
Hansh Sehgal,8901385875,7.0,"            Phulambri , Maharashtra",20.11165,75.45954, Aurangabad , Phulambri ,,,,
Nakul Sibal,9964308038,7.0,"           Aurangabad , Maharashtra",19.87016,75.346, Aurangabad , Aurangabad ,,,,
Misha Sule,4785323694,4.0,"            Khuldabad , Maharashtra",20.00072,75.18917, Aurangabad , Khuldabad ,,,,
Sara Tripathi,3261339960,4.0,"             Vaijapur , Maharashtra",19.92509,74.72936, Aurangabad , Vaijapur ,,,,
Keya Tripathi,2304195589,1.0,"             Gangapur , Maharashtra",19.70106,75.00617, Aurangabad , Gangapur ,,,,
Zeeshan Sura,3594808442,3.0,"              Paithan , Maharashtra",19.47498,75.38533, Aurangabad , Paithan ,,,,
Navya Suri,4715130135,7.0,"               Tumsar , Maharashtra",21.38422,79.7519,   Bhandara , Tumsar ,,,,
Eva Shroff,6022120166,8.0,"               Mohadi , Maharashtra",21.28326,79.67475,   Bhandara , Mohadi ,,,,
Elakshi Khosla,6107032821,10.0,"              Bandara , Maharashtra",21.18738,78.98513,   Bhandara , Bandara ,,,,
Ishita Rout,3705226758,1.0,"               Sakoli , Maharashtra",21.08583,79.99569,   Bhandara , Sakoli ,,,,
Hazel Bhardwaj,3598711282,2.0,"              Lakhani , Maharashtra",21.06025,79.82786,   Bhandara , Lakhani ,,,,
Nitara Bajaj,8501924634,6.0,"                Pauni , Maharashtra",20.7926,79.63236,   Bhandara , Pauni ,,,,
Samiha Bose,9037928437,5.0,"            Lakhandur , Maharashtra",20.78033,79.87297,   Bhandara , Lakhandur ,,,,
Indrans Brahmbhatt,8341686349,6.0,"      Jalgaon (Jamod) , Maharashtra",21.04658,76.52946,    Buldana , Jalgaon (Jamod) ,,,,
Baiju Bandi,7376857358,8.0,"           Sangrampur , Maharashtra",21.11567,76.70735,    Buldana , Sangrampur ,,,,
Rati Chahal,5932473457,5.0,"              Shegaon , Maharashtra",20.79561,76.69076,    Buldana , Shegaon ,,,,
Prisha Mani,8198309237,3.0,"              Nandura , Maharashtra",20.8375,76.461,    Buldana , Nandura ,,,,
Zoya Rattan,6961916495,1.0,"             Malkapur , Maharashtra",20.89014,76.20135,    Buldana , Malkapur ,,,,
Priyansh Bali,8335159267,8.0,"               Motala , Maharashtra",20.67531,76.2046,    Buldana , Motala ,,,,
Kanav Dey,9600120392,1.0,"             Khamgaon , Maharashtra",20.70687,76.57303,    Buldana , Khamgaon ,,,,
Eva Loyal,2735630922,5.0,"               Mehkar , Maharashtra",20.15012,76.57118,    Buldana , Mehkar ,,,,
Jivin Kari,4142373289,8.0,"              Chikhli , Maharashtra",20.34687,76.26414,    Buldana , Chikhli ,,,,
Zara Sawhney,9134745063,9.0,"              Buldana , Maharashtra",20.5399,76.17072,    Buldana , Buldana ,,,,
Ahana  Cheema,6774960056,6.0,"        Deolgaon Raja , Maharashtra",20.01841,76.04156,    Buldana , Deolgaon Raja ,,,,
Ishita Joshi,2845403775,4.0,"        Sindkhed Raja , Maharashtra",19.95673,76.12514,    Buldana , Sindkhed Raja ,,,,
Sumer Randhawa,6346849644,7.0,"                Lonar , Maharashtra",19.98453,76.52326,    Buldana , Lonar ,,,,
Inaaya  Kade,911640000000,6.0,"               Warora , Maharashtra",20.2346,79.01274, Chandrapur , Warora ,,,,
Riya Kurian,918239000000,5.0,"               Chimur , Maharashtra",20.49763,79.3763, Chandrapur , Chimur ,,,,
Urvi Devan,5916581423,2.0,"              Nagbhir , Maharashtra",20.58252,79.69078, Chandrapur , Nagbhir ,,,,
Gatik Lad,6230352856,8.0,"           Brahmapuri , Maharashtra",20.61105,79.8558, Chandrapur , Brahmapuri ,,,,
Jhanvi Sani,6778560306,10.0,"               Sawali , Maharashtra",20.1966,79.83021, Chandrapur , Sawali ,,,,
Amira Bhatia,1796133262,6.0,"            Sindewahi , Maharashtra",20.29195,79.66029, Chandrapur , Sindewahi ,,,,
Zaina Kant,9183636350,3.0,"           Bhadravati , Maharashtra",20.10517,79.11301, Chandrapur , Bhadravati ,,,,
Indrajit Zachariah,8206885712,2.0,"           Chandrapur , Maharashtra",19.96652,79.29677, Chandrapur , Chandrapur ,,,,
Faiyaz Sabharwal,9274016967,1.0,"                  Mul , Maharashtra",20.06378,79.67164, Chandrapur , Mul ,,,,
Vardaniya Som,238652305,9.0,"            Pombhurna , Maharashtra",19.87703,79.63498, Chandrapur , Pombhurna ,,,,
Aarush Sarna,5368580490,6.0,"            Ballarpur , Maharashtra",19.84912,79.35181, Chandrapur , Ballarpur ,,,,
Uthkarsh Sarkar,8955156558,4.0,"              Korpana , Maharashtra",19.74514,78.98852, Chandrapur , Korpana ,,,,
Neysa Bhatia,9188005915,1.0,"               Jiwati , Maharashtra",19.61064,79.06665, Chandrapur , Jiwati ,,,,
Rania Subramaniam,9569745940,8.0,"               Rajura , Maharashtra",19.77912,79.36565, Chandrapur , Rajura ,,,,
Anahi Arora,3179840969,3.0,"            Gondpipri , Maharashtra",19.71447,79.685, Chandrapur , Gondpipri ,,,,
Krish Choudhry,2585904735,2.0,"              Shirpur , Maharashtra",21.3526,74.87985,      Dhule , Shirpur ,,,,
Miraan Bahl,9177808940,4.0,"            Shindkhed , Maharashtra",21.24527,77.96064,      Dhule , Shindkhed ,,,,
Anay Seshadri,9142362481,7.0,"                Sakri , Maharashtra",20.99352,74.31818,      Dhule , Sakri ,,,,
Eshani Butala,8530860586,6.0,"                Dhule , Maharashtra",20.90287,74.77259,      Dhule , Dhule ,,,,
Aniruddh Guha,2914182648,4.0,"   Desaiganj (Vadasa) , Maharashtra",20.62166,79.96312, Gadchiroli , Desaiganj (Vadasa) ,,,,
Oorja Mangat,9148490099,2.0,"               Armori , Maharashtra",20.46804,79.98518, Gadchiroli , Armori ,,,,
Ivana Chakrabarti,9198958807,2.0,"             Kurkheda , Maharashtra",20.62157,80.20932, Gadchiroli , Kurkheda ,,,,
Priyansh Rao,6635833907,3.0,"               Korchi , Maharashtra",20.8159,80.40746, Gadchiroli , Korchi ,,,,
Darshit Mahajan,7432480075,6.0,"              Dhanora , Maharashtra",20.26818,80.30588, Gadchiroli , Dhanora ,,,,
Amira Ram,9197541321,8.0,"           Gadchiroli , Maharashtra",20.18259,80.00617, Gadchiroli , Gadchiroli ,,,,
Onkar Lata,364937208,4.0,"            Chamorshi , Maharashtra",19.93918,79.89107, Gadchiroli , Chamorshi ,,,,
Aradhya Jha,2020970654,3.0,"             Mulchera , Maharashtra",19.68009,80.00357, Gadchiroli , Mulchera ,,,,
Miraya Gara,5181533450,3.0,"             Etapalli , Maharashtra",19.99167,80.43392, Gadchiroli , Etapalli ,,,,
Charvi Atwal,9163364977,5.0,"            Bhamragad , Maharashtra",19.41402,80.59101, Gadchiroli , Bhamragad ,,,,
Aradhya Dutt,9171351212,8.0,"                Aheri , Maharashtra",19.41525,80.00561, Gadchiroli , Aheri ,,,,
Umang Jha,3145803633,3.0,"             Sironcha , Maharashtra",18.84683,79.96407, Gadchiroli , Sironcha ,,,,
Charvi Karpe,9114695080,8.0,"               Tirora , Maharashtra",21.4102,79.92809,    Gondiya , Tirora ,,,,
Nishith Som,4358682955,10.0,"               Tirora , Maharashtra",21.4102,79.92809,    Gondiya , Tirora ,,,,
Riya Dhawan,9133855396,7.0,"               Tirora , Maharashtra",21.4102,79.92809,    Gondiya , Tirora ,,,,
Badal Jhaveri,7426833667,6.0,"               Tirora , Maharashtra",21.4102,79.92809,    Gondiya , Tirora ,,,,
Hiran Kale,118865595,1.0,"               Tirora , Maharashtra",21.4102,79.92809,    Gondiya , Tirora ,,,,
Prerak Chaudhary,9177085799,3.0,"               Tirora , Maharashtra",21.4102,79.92809,    Gondiya , Tirora ,,,,
Lagan Bhattacharyya,5294569800,9.0,"               Tirora , Maharashtra",21.4102,79.92809,    Gondiya , Tirora ,,,,
Indrans Ramanathan,9177608321,2.0,"               Tirora , Maharashtra",21.4102,79.92809,    Gondiya , Tirora ,,,,
Seher Som,9115651005,5.0,"               Tirora , Maharashtra",21.4102,79.92809,    Gondiya , Tirora ,,,,
Miraan Ramesh,1673020119,3.0,"               Tirora , Maharashtra",21.4102,79.92809,    Gondiya , Tirora ,,,,
Ryan Wali,9163977803,9.0,"               Tirora , Maharashtra",21.4102,79.92809,    Gondiya , Tirora ,,,,
Miraya Behl,4359502969,7.0,"               Tirora , Maharashtra",21.4102,79.92809,    Gondiya , Tirora ,,,,
Tiya Sood,4697767025,5.0,"               Tirora , Maharashtra",21.4102,79.92809,    Gondiya , Tirora ,,,,
Aaryahi Choudhry,9109771640,4.0,"               Tirora , Maharashtra",21.4102,79.92809,    Gondiya , Tirora ,,,,
Pranay Sabharwal,9109419445,9.0,"               Tirora , Maharashtra",21.4102,79.92809,    Gondiya , Tirora ,,,,
Zoya Buch,9587954836,5.0,"               Tirora , Maharashtra",21.4102,79.92809,    Gondiya , Tirora ,,,,
Miraan Saha,462513150,1.0,"              Sengaon , Maharashtra",19.86818,76.93002,    Hingoli , Sengaon ,,,,
Rhea Kalita,9773223664,5.0,"              Sengaon , Maharashtra",19.86818,76.93002,    Hingoli , Sengaon ,,,,
Bhavin Bajaj,9153258322,10.0,"              Hingoli , Maharashtra",19.72169,77.15177,    Hingoli , Hingoli ,,,,
Jayan Devi,5827999218,6.0,"              Hingoli , Maharashtra",19.72169,77.15177,    Hingoli , Hingoli ,,,,
Mamooty Kanda,3658001023,5.0,"     Aundha (Nagnath) , Maharashtra",19.54356,77.04244,    Hingoli , Aundha (Nagnath) ,,,,
Zaina Grewal,5701022527,10.0,"     Aundha (Nagnath) , Maharashtra",19.54356,77.04244,    Hingoli , Aundha (Nagnath) ,,,,
Faiyaz D’Alia,1837212382,6.0,"            Kalamnuri , Maharashtra",19.67593,77.31165,    Hingoli , Kalamnuri ,,,,
Nirvi Gulati,9129225161,8.0,"            Kalamnuri , Maharashtra",19.67593,77.31165,    Hingoli , Kalamnuri ,,,,
Oorja Raja,9319176578,7.0,"              Basmath , Maharashtra",19.32566,77.15999,    Hingoli , Basmath ,,,,
Uthkarsh Baria,5046116300,1.0,"              Basmath , Maharashtra",19.32566,77.15999,    Hingoli , Basmath ,,,,
Vidur Mallick,9112340575,9.0,"               Chopda , Maharashtra",21.2441,75.29399,    Jalgaon , Chopda ,,,,
Eva Karpe,9133311346,6.0,"                Yawal , Maharashtra",21.17036,75.70106,    Jalgaon , Yawal ,,,,
Alisha Raj,915750000000,5.0,"                Raver , Maharashtra",21.24331,76.03385,    Jalgaon , Raver ,,,,
Akarsh Gara,9174757152,6.0,"          Muktainagar , Maharashtra",21.02959,76.11857,    Jalgaon , Muktainagar ,,,,
Yakshit Kant,9193851944,5.0,"               Bodvad , Maharashtra",20.88137,75.99225,    Jalgaon , Bodvad ,,,,
Kabir Bajwa,6474384309,9.0,"             Bhusawal , Maharashtra",21.04854,75.78869,    Jalgaon , Bhusawal ,,,,
Miraya Shankar,1334916654,4.0,"              Jalgaon , Maharashtra",21.00292,75.56602,    Jalgaon , Jalgaon ,,,,
Aarush Saran,3477188871,6.0,"              Erandol , Maharashtra",20.92754,75.32563,    Jalgaon , Erandol ,,,,
Rhea Viswanathan,9136831772,10.0,"           Dharangaon , Maharashtra",21.0063,75.27534,    Jalgaon , Dharangaon ,,,,
Samarth Manne,3374868457,8.0,"              Amalner , Maharashtra",21.04209,75.06307,    Jalgaon , Amalner ,,,,
Siya Bahri,9145647003,9.0,"               Parola , Maharashtra",20.87561,75.11677,    Jalgaon , Parola ,,,,
Gatik Raval,1447629872,2.0,"             Bhadgaon , Maharashtra",20.66414,75.23223,    Jalgaon , Bhadgaon ,,,,
Purab Barman,8759525890,2.0,"           Chalisgaon , Maharashtra",20.46295,75.00532,    Jalgaon , Chalisgaon ,,,,
Nirvaan Rana,8438791725,7.0,"              Pachora , Maharashtra",20.66571,75.34589,    Jalgaon , Pachora ,,,,
Gatik Dash,2234899031,5.0,"               Jamner , Maharashtra",20.8088,75.77886,    Jalgaon , Jamner ,,,,
Saira Toor,9153055260,5.0,"            Bhokardan , Maharashtra",20.24485,75.76901,      Jalna , Bhokardan ,,,,
Saanvi Bandi,8402355566,6.0,"           Jafferabad , Maharashtra",20.1859,76.01554,      Jalna , Jafferabad ,,,,
Indrans Ray,9126029788,4.0,"                Jalna , Maharashtra",19.84102,75.88636,      Jalna , Jalna ,,,,
Stuvan Mani,9109063387,6.0,"             Badnapur , Maharashtra",19.86989,75.76109,      Jalna , Badnapur ,,,,
Tara Madan,487116238,4.0,"                Ambad , Maharashtra",19.61596,75.79695,      Jalna , Ambad ,,,,
Ivana Issac,9184190726,7.0,"          Ghansawangi , Maharashtra",19.52122,75.98533,      Jalna , Ghansawangi ,,,,
Misha Dash,4806387312,8.0,"               Partur , Maharashtra",19.59016,76.2127,      Jalna , Partur ,,,,
Rohan Karnik,9106049177,1.0,"               Mantha , Maharashtra",19.71936,76.36334,      Jalna , Mantha ,,,,
Myra Bhavsar,8080768483,6.0,"            Shahuwadi , Maharashtra",16.88841,73.89494,   Kolhapur , Shahuwadi ,,,,
Armaan Bandi,9150868236,1.0,"              Panhala , Maharashtra",16.81168,74.11185,   Kolhapur , Panhala ,,,,
Nayantara Bera,3381740532,8.0,"          Hatkanangle , Maharashtra",16.75231,74.27733,   Kolhapur , Hatkanangle ,,,,
Nehmat Bora,9397561783,9.0,"               Shirol , Maharashtra",16.68409,74.58954,   Kolhapur , Shirol ,,,,
Ishita Doctor,9465215228,1.0,"               Karvir , Maharashtra",16.70542,74.30159,   Kolhapur , Karvir ,,,,
Anya Hegde,8952849032,5.0,"           Gaganbavda , Maharashtra",16.55092,73.84165,   Kolhapur , Gaganbavda ,,,,
Suhana Sridhar,9188230755,5.0,"          Radhanagari , Maharashtra",16.42144,74.04381,   Kolhapur , Radhanagari ,,,,
Kaira Hayer,4833492661,10.0,"                Kagal , Maharashtra",16.58066,74.31673,   Kolhapur , Kagal ,,,,
Kashvi Srinivas,6530125563,8.0,"            Bhudargad , Maharashtra",16.3146,74.14221,   Kolhapur , Bhudargad ,,,,
Anika Gaba,8051379889,1.0,"                 Ajra , Maharashtra",16.11748,74.20731,   Kolhapur , Ajra ,,,,
Shalv Raman,9176979463,2.0,"           Gadhinglaj , Maharashtra",16.22653,74.35217,   Kolhapur , Gadhinglaj ,,,,
Anay Dhillon,1548278514,1.0,"             Chandgad , Maharashtra",15.97927,74.35454,   Kolhapur , Chandgad ,,,,
Nitara Ganesh,9183491979,2.0,"                Latur , Maharashtra",18.39721,76.56784,      Latur , Latur ,,,,
Ritvik Ganesan,2613097495,10.0,"              Renapur , Maharashtra",18.52674,76.59316,      Latur , Renapur ,,,,
Ahana  Agrawal,8955074947,8.0,"             Ahmadpur , Maharashtra",18.70561,76.93838,      Latur , Ahmadpur ,,,,
Amani Chana,1672552983,10.0,"               Jalkot , Maharashtra",18.57766,77.17738,      Latur , Jalkot ,,,,
Mahika Sandhu,9173213850,1.0,"               Chakur , Maharashtra",18.51137,76.84527,      Latur , Chakur ,,,,
Indrajit Choudhry,9126274272,6.0,"      Shirur-Anantpal , Maharashtra",18.34194,76.79819,      Latur , Shirur-Anantpal ,,,,
Purab Jayaraman,8858630249,9.0,"                 Ausa , Maharashtra",18.24436,76.49958,      Latur , Ausa ,,,,
Zoya Raju,1061008256,10.0,"              Nilanga , Maharashtra",18.12975,76.74882,      Latur , Nilanga ,,,,
Kiaan Chand,9104671450,4.0,"                Deoni , Maharashtra",18.24843,77.04604,      Latur , Deoni ,,,,
Onkar Bora,3346180327,6.0,"                Udgir , Maharashtra",18.39258,77.11756,      Latur , Udgir ,,,,
Adira Dani,9124881503,8.0,"              Narkhed , Maharashtra",21.46908,78.52944,     Nagpur , Narkhed ,,,,
Aaryahi Sarin,7181600431,7.0,"                Katol , Maharashtra",21.2759,78.58681,     Nagpur , Katol ,,,,
Ranbir Dass,9161673384,2.0,"          Kalameshwar , Maharashtra",21.23453,78.91183,     Nagpur , Kalameshwar ,,,,
Riaan Grover,4516643595,5.0,"               Savner , Maharashtra",21.38685,78.92143,     Nagpur , Savner ,,,,
Arnav Ratta,6287657042,5.0,"             Parseoni , Maharashtra",21.37164,79.1494,     Nagpur , Parseoni ,,,,
Kavya Bhat,9106847928,7.0,"               Ramtek , Maharashtra",21.39508,79.31719,     Nagpur , Ramtek ,,,,
Vedika Bose,9152637283,6.0,"                Mauda , Maharashtra",21.14734,79.40448,     Nagpur , Mauda ,,,,
Vanya Bhagat,9134757235,5.0,"              Kamptee , Maharashtra",21.21241,79.19715,     Nagpur , Kamptee ,,,,
Parinaaz Kapadia,6068197420,2.0,"       Nagpur (Rural) , Maharashtra",21.157081,79.073035,     Nagpur , Nagpur (Rural) ,,,,
Siya Sane,1740268664,3.0,"       Nagpur (Urban) , Maharashtra",21.15706,79.08213,     Nagpur , Nagpur (Urban) ,,,,
Sara Sama,964682746,5.0,"               Hingna , Maharashtra",21.07322,78.96109,     Nagpur , Hingna ,,,,
Tushar Vohra,9170099859,9.0,"                Umred , Maharashtra",20.84891,79.32685,     Nagpur , Umred ,,,,
Indrajit Rana,288590708,10.0,"                 Kuhi , Maharashtra",21.01405,79.36118,     Nagpur , Kuhi ,,,,
Taimur Gera,9649376682,3.0,"             Bhiwapur , Maharashtra",20.78654,79.47958,     Nagpur , Bhiwapur ,,,,
Eshani Ben,2804150460,4.0,"               Mahoor , Maharashtra",19.84855,78.00253,     Nanded , Mahoor ,,,,
Lavanya Chakrabarti,8908950227,9.0,"               Kinwat , Maharashtra",19.62308,78.20047,     Nanded , Kinwat ,,,,
Kiaan Bala,1964911100,6.0,"         Himayatnagar , Maharashtra",19.407,77.84999,     Nanded , Himayatnagar ,,,,
Yuvraj  Bandi,9152339236,7.0,"              Hadgaon , Maharashtra",19.49871,77.65544,     Nanded , Hadgaon ,,,,
Aaina Varma,4113584688,2.0,"             Ardhapur , Maharashtra",19.28518,77.37885,     Nanded , Ardhapur ,,,,
Ahana  Atwal,9149489605,7.0,"               Nanded , Maharashtra",19.15571,77.31096,     Nanded , Nanded ,,,,
Ishita Kuruvilla,9071855774,7.0,"              Mudkhed , Maharashtra",19.14914,77.50349,     Nanded , Mudkhed ,,,,
Anaya Wali,311509448,2.0,"               Bhokar , Maharashtra",19.22107,77.66942,     Nanded , Bhokar ,,,,
Samar Chaudhary,604429549,3.0,"                 Umri , Maharashtra",19.04754,77.63878,     Nanded , Umri ,,,,
Vardaniya Korpal,7640452661,6.0,"            Dharmabad , Maharashtra",18.89215,77.84728,     Nanded , Dharmabad ,,,,
Yakshit Chaudry,8905086159,4.0,"               Biloli , Maharashtra",18.77509,77.72217,     Nanded , Biloli ,,,,
Shanaya Kumer,6352593756,6.0,"  Naigaon (Khairgaon) , Maharashtra",18.81384,77.5177,     Nanded , Naigaon (Khairgaon) ,,,,
Anahita Divan,9104017230,5.0,"                 Loha , Maharashtra",18.95576,77.12296,     Nanded , Loha ,,,,
Aarush Babu,9273344948,10.0,"              Kandhar , Maharashtra",18.87332,77.18649,     Nanded , Kandhar ,,,,
Saira Gole,1703459284,9.0,"               Mukhed , Maharashtra",18.70776,77.36679,     Nanded , Mukhed ,,,,
Nirvi Wali,4423199574,10.0,"               Deglur , Maharashtra",18.54569,77.57702,     Nanded , Deglur ,,,,
Shanaya Rajan,6245854124,5.0,"            Akkalkuwa , Maharashtra",21.55528,74.02119,  Nandurbar , Akkalkuwa ,,,,
Pranay Doshi,9186295071,9.0,"               Akrani , Maharashtra",21.88117,74.4633,  Nandurbar , Akrani ,,,,
Dhruv Dhawan,2324456187,1.0,"               Taloda , Maharashtra",21.56314,74.21605,  Nandurbar , Taloda ,,,,
Pranay Bail,3380519239,8.0,"              Shahada , Maharashtra",21.5352,74.47365,  Nandurbar , Shahada ,,,,
Tarini Shukla,4222976536,5.0,"            Nandurbar , Maharashtra",21.36671,74.24051,  Nandurbar , Nandurbar ,,,,
Sumer Sarraf,9117599327,1.0,"              Nawapur , Maharashtra",21.1613,73.79405,  Nandurbar , Nawapur ,,,,
Ivana Lall,7284538361,6.0,"              Surgana , Maharashtra",20.56087,73.63661,     Nashik , Surgana ,,,,
Divyansh Suri,1201197318,7.0,"               Kalvan , Maharashtra",18.29754,73.26085,     Nashik , Kalvan ,,,,
Khushi Chad,2623371112,3.0,"                Deola , Maharashtra",20.45191,74.22946,     Nashik , Deola ,,,,
Darshit Karpe,9166976123,2.0,"               Baglan , Maharashtra",20.59641,74.20155,     Nashik , Baglan ,,,,
Nehmat Goda,9113604366,6.0,"             Malegaon , Maharashtra",20.54966,74.53462,     Nashik , Malegaon ,,,,
Umang Chokshi,9164508783,6.0,"             Nandgaon , Maharashtra",20.3074,74.65824,     Nashik , Nandgaon ,,,,
Shray Kurian,625258133,9.0,"             Chandvad , Maharashtra",18.60011,75.63631,     Nashik , Chandvad ,,,,
Charvi Joshi,9134507230,8.0,"              Dindori , Maharashtra",20.03188,74.14776,     Nashik , Dindori ,,,,
Zain Bava,5108776951,2.0,"                 Peth , Maharashtra",17.05422,74.22996,     Nashik , Peth ,,,,
Lakshay Chhabra,6395521424,4.0,"              Trumbak , Maharashtra",19.93499,73.52849,     Nashik , Trumbak ,,,,
Fateh Date,324365503,10.0,"               Nashik , Maharashtra",19.99727,73.79096,     Nashik , Nashik ,,,,
Lakshit Deshmukh,9120921829,6.0,"             Igatputi , Maharashtra",19.69516,73.56175,     Nashik , Igatputi ,,,,
Yasmin Agrawal,9131403325,9.0,"               Sinnar , Maharashtra",19.84369,73.99385,     Nashik , Sinnar ,,,,
Charvi Gera,8415061051,7.0,"               Niphad , Maharashtra",20.14002,74.23684,     Nashik , Niphad ,,,,
Divit Vig,5177604152,8.0,"                Yeola , Maharashtra",20.0424,74.48944,     Nashik , Yeola ,,,,
Mannat Shere,9076240247,4.0,"              Paranda , Maharashtra",18.26837,75.45353,  Osmanabad , Paranda ,,,,
Gokul Venkataraman,9110459869,3.0,"                Bhoom , Maharashtra",18.46071,75.66214,  Osmanabad , Bhoom ,,,,
Badal Shetty,6997439601,2.0,"                Washi , Maharashtra",18.54639,75.74208,  Osmanabad , Washi ,,,,
Nitya Soni,9131322450,9.0,"               Kalamb , Maharashtra",20.44095,78.32677,  Osmanabad , Kalamb ,,,,
Vidur Choudhury,4396632326,4.0,"            Osmanabad , Maharashtra",18.1853,76.04073,  Osmanabad , Osmanabad ,,,,
Seher Kibe,1045497667,6.0,"             Tuljapur , Maharashtra",18.01376,76.07125,  Osmanabad , Tuljapur ,,,,
Lakshay Kothari,740816731,3.0,"               Lohara , Maharashtra",17.98603,76.35961,  Osmanabad , Lohara ,,,,
Hrishita Devi,7528422292,8.0,"               Umerga , Maharashtra",17.83723,76.62664,  Osmanabad , Umerga ,,,,
Kartik Vyas,5204412413,10.0,"                Sailu , Maharashtra",20.80667,78.88364,   Parbhani , Sailu ,,,,
Sumer Sankar,899978883,8.0,"               Jintur , Maharashtra",19.61331,76.68433,   Parbhani , Jintur ,,,,
Rania Koshy,9160571407,10.0,"             Parbhani , Maharashtra",19.26078,76.77693,   Parbhani , Parbhani ,,,,
Mahika Yohannan,24792555,6.0,"              Manwath , Maharashtra",19.29953,76.49418,   Parbhani , Manwath ,,,,
Jhanvi Bhatnagar,9184444757,3.0,"               Pathri , Maharashtra",19.26199,76.4366,   Parbhani , Pathri ,,,,
Tushar Chaudhuri,4626005059,3.0,"              Sonpeth , Maharashtra",19.02787,76.47423,   Parbhani , Sonpeth ,,,,
Devansh Sridhar,75640959,5.0,"            Gangakhed , Maharashtra",18.96648,76.74846,   Parbhani , Gangakhed ,,,,
Aaina Badami,2492181751,3.0,"                Palam , Maharashtra",19.01049,76.98182,   Parbhani , Palam ,,,,
Miraan Keer,6115571893,10.0,"                Purna , Maharashtra",19.18354,77.03009,   Parbhani , Purna ,,,,
Rohan Deshmukh,4242058089,3.0,"               Junnar , Maharashtra",19.20443,73.8725,       Pune , Junnar ,,,,
Rania Rattan,4453451103,3.0,"             Ambegaon , Maharashtra",19.00496,73.94583,       Pune , Ambegaon ,,,,
Ivan Dhar,9941433054,6.0,"               Shirur , Maharashtra",19.03367,75.49058,       Pune , Shirur ,,,,
Charvi Ahluwalia,6363251401,5.0,"                 Khed , Maharashtra",18.85531,73.88754,       Pune , Khed ,,,,
Tara Edwin,5555916403,4.0,"                Mawal , Maharashtra",18.77193,73.4043,       Pune , Mawal ,,,,
Vedika Zachariah,4426913562,9.0,"               Mulshi , Maharashtra",18.60708,73.72324,       Pune , Mulshi ,,,,
Lakshay Trivedi,8629265961,10.0,"               Haveli , Maharashtra",19.17695,73.94813,       Pune , Haveli ,,,,
Ayesha Deshpande,8838137373,4.0,"            Pune City , Maharashtra",19.09202,72.88585,       Pune , Pune City ,,,,
Vritika Bose,4060507554,3.0,"                Daund , Maharashtra",18.45738,74.57741,       Pune , Daund ,,,,
Vaibhav Kothari,9077603319,1.0,"            Purandhar , Maharashtra",18.34706,74.03539,       Pune , Purandhar ,,,,
Samar Mammen,8965095528,6.0,"                Velhe , Maharashtra",18.30661,73.67068,       Pune , Velhe ,,,,
Yashvi Chadha,8860282292,4.0,"                 Bhor , Maharashtra",18.14432,73.84412,       Pune , Bhor ,,,,
Vanya Chandra,3707003179,9.0,"             Baramati , Maharashtra",18.16536,74.5923,       Pune , Baramati ,,,,
Amani Handa,921458013,8.0,"              Indapur , Maharashtra",18.1163,75.02819,       Pune , Indapur ,,,,
Inaaya  Kade,8821577197,8.0,"                 Uran , Maharashtra",18.87875,72.93932,    Raigarh , Uran ,,,,
Mamooty Bala,9799523317,1.0,"               Panvel , Maharashtra",18.99821,73.12315,    Raigarh , Panvel ,,,,
Nayantara Das,7771955172,6.0,"               Karjat , Maharashtra",18.55079,75.00907,    Raigarh , Karjat ,,,,
Shanaya Tiwari,587726625,1.0,"             Khalapur , Maharashtra",18.80024,73.32012,    Raigarh , Khalapur ,,,,
Kashvi Kumar,1571379812,1.0,"                  Pen , Maharashtra",18.7349,73.09258,    Raigarh , Pen ,,,,
Mohanlal Trivedi,7329975594,6.0,"               Alibag , Maharashtra",18.64825,72.87798,    Raigarh , Alibag ,,,,
Sana Yogi,2203175687,4.0,"                Murud , Maharashtra",18.33319,72.96273,    Raigarh , Murud ,,,,
Anahi Rao,3209774466,9.0,"                 Roha , Maharashtra",18.42873,73.16385,    Raigarh , Roha ,,,,
Kartik Kade,246960063,7.0,"             Sudhagad , Maharashtra",18.58628,73.25654,    Raigarh , Sudhagad ,,,,
Aarna Loke,1434659924,6.0,"              Mangaon , Maharashtra",18.23885,73.28139,    Raigarh , Mangaon ,,,,
Amani Ramachandran,6668924217,8.0,"                 Tala , Maharashtra",18.28833,73.14009,    Raigarh , Tala ,,,,
Ira Hayre,4895967501,2.0,"          Shrivardhan , Maharashtra",18.04902,73.01536,    Raigarh , Shrivardhan ,,,,
Aarush Magar,4694796773,2.0,"               Mhasla , Maharashtra",18.13425,73.1113,    Raigarh , Mhasla ,,,,
Sara Khanna,2840521420,10.0,"                Mahad , Maharashtra",18.08124,73.42205,    Raigarh , Mahad ,,,,
Indrans Gandhi,9192558121,9.0,"             Poladpur , Maharashtra",17.98335,73.46517,    Raigarh , Poladpur ,,,,
Sana Amble,856597538,1.0,"            Mandangad , Maharashtra",17.9798,73.19407,  Ratnagiri , Mandangad ,,,,
Aarush Choudhary,9382608022,8.0,"               Dapoli , Maharashtra",17.75765,73.18781,  Ratnagiri , Dapoli ,,,,
Oorja Soni,5461575129,10.0,"                 Khed , Maharashtra",18.85531,73.88754,  Ratnagiri , Khed ,,,,
Indrajit Grewal,6128070844,5.0,"              Chiplun , Maharashtra",17.52385,73.52601,  Ratnagiri , Chiplun ,,,,
Prisha Dayal,1205914038,9.0,"              Guhagar , Maharashtra",17.48905,73.26941,  Ratnagiri , Guhagar ,,,,
Vritika Khare,9062029672,7.0,"            Ratnagiri , Maharashtra",16.99214,73.2919,  Ratnagiri , Ratnagiri ,,,,
Neelofar Lad,4467247252,2.0,"         Sangameshwar , Maharashtra",17.16984,73.53505,  Ratnagiri , Sangameshwar ,,,,
Heer Sathe,2718578232,2.0,"                Lanja , Maharashtra",16.85828,73.54913,  Ratnagiri , Lanja ,,,,
Arhaan Thaker,977995445,1.0,"              Rajapur , Maharashtra",16.65917,73.52315,  Ratnagiri , Rajapur ,,,,
Yashvi Lall,7703324950,4.0,"              Shirala , Maharashtra",16.96629,74.09254,     Sangli , Shirala ,,,,
Umang Kaur,4536162644,5.0,"                Walwa , Maharashtra",17.02621,74.37124,     Sangli , Walwa ,,,,
Lavanya Sridhar,9104713318,3.0,"                Palus , Maharashtra",17.10312,74.42817,     Sangli , Palus ,,,,
Anvi Brar,3349243190,1.0,"             Kadegaon , Maharashtra",17.29799,74.40846,     Sangli , Kadegaon ,,,,
Umang Tak,9704757733,9.0,"             Khanapur , Maharashtra",17.282,74.52329,     Sangli , Khanapur ,,,,
Suhana Zachariah,315378182,7.0,"               Atpadi , Maharashtra",17.36107,74.90389,     Sangli , Atpadi ,,,,
Advika Basak,3647361740,7.0,"              Tasgaon , Maharashtra",17.03664,74.5999,     Sangli , Tasgaon ,,,,
Ayesha Kapoor,8704225066,7.0,"                Miraj , Maharashtra",16.82807,74.64908,     Sangli , Miraj ,,,,
Nirvi Kala,7833194612,8.0,"      Kavathemahankal , Maharashtra",17.01013,74.89398,     Sangli , Kavathemahankal ,,,,
Parinaaz Sharaf,6573137188,1.0,"                  Jat , Maharashtra",17.04995,75.22069,     Sangli , Jat ,,,,
Reyansh Dhingra,5103089540,9.0,"        Mahabaleshwar , Maharashtra",17.9264,73.65949,     Satara , Mahabaleshwar ,,,,
Aniruddh Vyas,6031333432,7.0,"                  Wai , Maharashtra",17.94736,73.88801,     Satara , Wai ,,,,
Divit Soman,6236604848,6.0,"             Khandala , Maharashtra",18.08954,74.05069,     Satara , Khandala ,,,,
Fateh Shan,3703751837,8.0,"              Phaltan , Maharashtra",17.9891,74.4301,     Satara , Phaltan ,,,,
Uthkarsh Boase,8908109439,10.0,"                  Man , Maharashtra",17.63477,74.78363,     Satara , Man ,,,,
Mishti Vig,7244754556,6.0,"               Khatav , Maharashtra",17.56252,74.42919,     Satara , Khatav ,,,,
Jivin Sani,175641958,7.0,"             Koregaon , Maharashtra",17.70104,74.16325,     Satara , Koregaon ,,,,
Yakshit Soman,8422792949,4.0,"               Satara , Maharashtra",17.68589,73.99333,     Satara , Satara ,,,,
Trisha Kohli,8296147057,2.0,"                Jaoli , Maharashtra",17.82219,73.80508,     Satara , Jaoli ,,,,
Ritvik Kapur,8288812777,10.0,"                Patan , Maharashtra",17.37297,73.90327,     Satara , Patan ,,,,
Rohan Grover,326056761,4.0,"                Karad , Maharashtra",17.27691,74.18511,     Satara , Karad ,,,,
Hazel Gala,592412042,5.0,"               Devgad , Maharashtra",16.39754,73.46709, Sindhudurg , Devgad ,,,,
Sumer Badal,1584865092,10.0,"          Vaibhavvadi , Maharashtra",16.50563,73.768, Sindhudurg , Vaibhavvadi ,,,,
Yasmin Char,6465234510,8.0,"             Kankavli , Maharashtra",16.26282,73.70874, Sindhudurg , Kankavli ,,,,
Raunak Solanki,8191425543,3.0,"               Malwan , Maharashtra",16.06527,73.47514, Sindhudurg , Malwan ,,,,
Anika Mani,31286852,10.0,"             Vengurla , Maharashtra",15.8521,73.63221, Sindhudurg , Vengurla ,,,,
Raghav Raval,157475975,1.0,"                Kudal , Maharashtra",16.00225,73.68906, Sindhudurg , Kudal ,,,,
Baiju Choudhury,5263609372,6.0,"           Sawantwadi , Maharashtra",15.90062,73.82283, Sindhudurg , Sawantwadi ,,,,
Vivaan Dugar,834540171,2.0,"             Dodamarg , Maharashtra",15.74848,74.04251, Sindhudurg , Dodamarg ,,,,
Vardaniya Swaminathan,9851405855,8.0,"              Karmala , Maharashtra",18.40742,75.19788,    Solapur , Karmala ,,,,
Saanvi Madan,4409994555,1.0,"                Madha , Maharashtra",18.09117,75.40698,    Solapur , Madha ,,,,
Indrajit Maharaj,9023443131,1.0,"               Barshi , Maharashtra",18.2335,75.69436,    Solapur , Barshi ,,,,
Piya Bhasin,7503503496,5.0,"        Solapur north , Maharashtra",17.72589,75.84166,    Solapur , Solapur north ,,,,
Stuvan Ravi,164793396,1.0,"                Mohol , Maharashtra",17.80921,75.63844,    Solapur , Mohol ,,,,
Jivin Bala,1783379139,5.0,"           Pandharpur , Maharashtra",17.66675,75.31331,    Solapur , Pandharpur ,,,,
Piya Goel,1299444769,5.0,"            Malshiras , Maharashtra",17.88995,75.00419,    Solapur , Malshiras ,,,,
Zoya Wable,2725504368,4.0,"              Sangole , Maharashtra",17.44271,75.19539,    Solapur , Sangole ,,,,
Ritvik Ramachandran,8400311286,4.0,"          Mangalvedhe , Maharashtra",17.51465,75.44983,    Solapur , Mangalvedhe ,,,,
Hunar Dara,8795243576,7.0,"        Solapur south , Maharashtra",17.49874,75.86221,    Solapur , Solapur south ,,,,
Eva Ramakrishnan,3984388794,9.0,"             Akkalkot , Maharashtra",17.52192,76.19798,    Solapur , Akkalkot ,,,,
Siya Kala,8203958975,5.0,"             Talasari , Maharashtra",20.16627,72.90636,      Thane , Talasari ,,,,
Mishti Suri,502841611,2.0,"               Dahanu , Maharashtra",19.97614,72.72193,      Thane , Dahanu ,,,,
Navya Bal,5575990477,8.0,"            Vikramgad , Maharashtra",19.79705,73.0963,      Thane , Vikramgad ,,,,
Lagan Thakkar,7285324909,10.0,"               Jawhar , Maharashtra",19.91282,73.22693,      Thane , Jawhar ,,,,
Saanvi Gade,2156736569,8.0,"              Mokhada , Maharashtra",19.89915,73.37829,      Thane , Mokhada ,,,,
Farhan Devan,437065243,7.0,"                 Vada , Maharashtra",19.65219,73.14325,      Thane , Vada ,,,,
Shlok Jhaveri,919121005,8.0,"              Palghar , Maharashtra",19.70023,72.77104,      Thane , Palghar ,,,,
Anika Kaur,8774511113,6.0,"                Vasai , Maharashtra",19.36621,72.81448,      Thane , Vasai ,,,,
Diya Sundaram,2531035799,9.0,"                Thane , Maharashtra",19.19704,72.96355,      Thane , Thane ,,,,
Hiran Sinha,4325209551,6.0,"             Bhiwandi , Maharashtra",19.29711,73.06349,      Thane , Bhiwandi ,,,,
Ojas Brahmbhatt,5213888685,9.0,"             Shahapur , Maharashtra",19.45606,73.33012,      Thane , Shahapur ,,,,
Armaan Singh,4482303731,3.0,"               Kalyan , Maharashtra",19.2437,73.13554,      Thane , Kalyan ,,,,
Ahana  Chand,7137891316,3.0,"           Ulhasnagar , Maharashtra",19.229,73.16553,      Thane , Ulhasnagar ,,,,
Divit Butala,8117058176,7.0,"            Ambarnath , Maharashtra",19.19574,73.19404,      Thane , Ambarnath ,,,,
Jayesh Ram,4427039193,8.0,"               Murbad , Maharashtra",19.25844,73.38958,      Thane , Murbad ,,,,
Lagan Agate,6469996439,9.0,"                Ashti , Maharashtra",18.80812,75.16609,     Wardha , Ashti ,,,,
Mannat Shetty,6489776335,8.0,"              Karanja , Maharashtra",21.1615,78.40973,     Wardha , Karanja ,,,,
Raghav Jhaveri,383951315,10.0,"                 Arvi , Maharashtra",21.00375,78.22844,     Wardha , Arvi ,,,,
Rasha Uppal,7544112164,3.0,"                Seloo , Maharashtra",20.80667,78.88364,     Wardha , Seloo ,,,,
Samar Sura,6275033445,8.0,"               Wardha , Maharashtra",20.73545,78.59485,     Wardha , Wardha ,,,,
Aarush Deo,7805997479,3.0,"                Deoli , Maharashtra",20.65315,78.47987,     Wardha , Deoli ,,,,
Akarsh Handa,9547594433,3.0,"           Hinganghat , Maharashtra",20.55161,78.84225,     Wardha , Hinganghat ,,,,
Nitya Wadhwa,9851618342,4.0,"           Samudrapur , Maharashtra",20.66947,78.92383,     Wardha , Samudrapur ,,,,
Shray Arya,9902376910,4.0,"             Malegaon , Maharashtra",20.54966,74.53462,     Washim , Malegaon ,,,,
Mohanlal Iyer,9725556803,3.0,"             Malegaon , Maharashtra",20.54966,74.53462,     Washim , Malegaon ,,,,
Arhaan Sura,8717391972,10.0,"           Mangrulpir , Maharashtra",20.31249,77.34093,     Washim , Mangrulpir ,,,,
Ryan Soman,2997774607,8.0,"           Mangrulpir , Maharashtra",20.31249,77.34093,     Washim , Mangrulpir ,,,,
Kiara Bahri,6067092629,4.0,"              Karanja , Maharashtra",21.1615,78.40973,     Washim , Karanja ,,,,
Vritika Dua,2490556875,10.0,"              Karanja , Maharashtra",21.1615,78.40973,     Washim , Karanja ,,,,
Gokul Garde,1947607485,10.0,"               Manora , Maharashtra",20.21787,77.56048,     Washim , Manora ,,,,
Aarna Dara,2201413790,6.0,"               Manora , Maharashtra",20.21787,77.56048,     Washim , Manora ,,,,
Anika Mallick,1011730916,6.0,"               Washim , Maharashtra",20.10821,77.14092,     Washim , Washim ,,,,
Emir Bava,7944537633,10.0,"               Washim , Maharashtra",20.10821,77.14092,     Washim , Washim ,,,,
Yakshit Borde,5384080202,6.0,"                Risod , Maharashtra",19.97806,76.79164,     Washim , Risod ,,,,
Ira Kara,9838480518,1.0,"                Risod , Maharashtra",19.97806,76.79164,     Washim , Risod ,,,,
Lakshay Lala,7568213884,6.0,"                  Ner , Maharashtra",20.4921,77.86682,   Yavatmal , Ner ,,,,
Sana Kaur,7436875574,5.0,"                  Ner , Maharashtra",20.4921,77.86682,   Yavatmal , Ner ,,,,
Bhavin Agate,4347316733,3.0,"            Babulgaon , Maharashtra",20.56281,78.14772,   Yavatmal , Babulgaon ,,,,
Onkar Sampath,9017831278,9.0,"            Babulgaon , Maharashtra",20.56281,78.14772,   Yavatmal , Babulgaon ,,,,
Shray Aggarwal,1543800342,10.0,"               Kalamb , Maharashtra",20.44095,78.32677,   Yavatmal , Kalamb ,,,,
Nishith Loke,7153833861,9.0,"               Kalamb , Maharashtra",20.44095,78.32677,   Yavatmal , Kalamb ,,,,
Gokul Dyal,7122083028,6.0,"             Yavatmal , Maharashtra",20.39324,78.13201,   Yavatmal , Yavatmal ,,,,
Vihaan Gulati,372249515,8.0,"             Yavatmal , Maharashtra",20.39324,78.13201,   Yavatmal , Yavatmal ,,,,
Vardaniya Karnik,1159777715,9.0,"               Darwha , Maharashtra",20.31067,77.76966,   Yavatmal , Darwha ,,,,
Saanvi Chana,2583998592,5.0,"               Darwha , Maharashtra",20.31067,77.76966,   Yavatmal , Darwha ,,,,
Nitya Lala,109392963,5.0,"               Digras , Maharashtra",20.10602,77.71509,   Yavatmal , Digras ,,,,
Nirvaan Tandon,1218639875,5.0,"               Digras , Maharashtra",20.10602,77.71509,   Yavatmal , Digras ,,,,
Trisha Bhat,9240208294,3.0,"                Pusad , Maharashtra",19.91042,77.56779,   Yavatmal , Pusad ,,,,
Parinaaz Uppal,4592841834,8.0,"                Pusad , Maharashtra",19.91042,77.56779,   Yavatmal , Pusad ,,,,
Samarth Buch,9339063859,10.0,"             Umarkhed , Maharashtra",19.60062,77.68829,   Yavatmal , Umarkhed ,,,,
Shanaya Garg,3243553214,9.0,"             Umarkhed , Maharashtra",19.60062,77.68829,   Yavatmal , Umarkhed ,,,,
Hansh Dubey,7085833768,7.0,"             Mahagaon , Maharashtra",19.76599,77.75211,   Yavatmal , Mahagaon ,,,,
Shayak Saraf,2296547354,2.0,"             Mahagaon , Maharashtra",19.76599,77.75211,   Yavatmal , Mahagaon ,,,,
Priyansh Sethi,2034142435,5.0,"                 Arni , Maharashtra",20.10034,77.95298,   Yavatmal , Arni ,,,,
Nayantara Ratta,5585982283,8.0,"                 Arni , Maharashtra",20.10034,77.95298,   Yavatmal , Arni ,,,,
Fateh Bhatnagar,7577490056,10.0,"             Ghatanji , Maharashtra",20.14262,78.3134,   Yavatmal , Ghatanji ,,,,
Samarth Basu,6919729216,6.0,"             Ghatanji , Maharashtra",20.14262,78.3134,   Yavatmal , Ghatanji ,,,,
Faiyaz Soni,2266449415,1.0,"              Kelapur , Maharashtra",20.01728,78.55221,   Yavatmal , Kelapur ,,,,
Gokul Toor,5748502922,9.0,"              Kelapur , Maharashtra",20.01728,78.55221,   Yavatmal , Kelapur ,,,,
Kiaan Grewal,2975681416,1.0,"             Ralegaon , Maharashtra",20.29926,78.62957,   Yavatmal , Ralegaon ,,,,
Ahana  Jhaveri,5195272762,2.0,"             Ralegaon , Maharashtra",20.29926,78.62957,   Yavatmal , Ralegaon ,,,,
Dishani Suresh,6690734103,10.0,"             Maregaon , Maharashtra",20.09859,78.73771,   Yavatmal , Maregaon ,,,,
Devansh Savant,1338126106,6.0,"             Maregaon , Maharashtra",20.09859,78.73771,   Yavatmal , Maregaon ,,,,
Aayush Kalla,8592570737,1.0,"          Zari-jamani , Maharashtra",19.88548,78.72985,   Yavatmal , Zari-jamani ,,,,
Himmat Gera,1433455141,10.0,"          Zari-jamani , Maharashtra",19.88548,78.72985,   Yavatmal , Zari-jamani ,,,,
Chirag Seshadri,9049388293,6.0,"                 Wani , Maharashtra",20.05793,78.95201,   Yavatmal , Wani ,,,,
Tiya De,9845739225,1.0,"                 Wani , Maharashtra",20.05793,78.95201,   Yavatmal , Wani ,,,,
Naresh Vaishnav,8879734967,5.0,"indralok phase 4,Bhayander East,Thane - 401105",19.3013744,72.8647306,Thane,thane,20.0,nareshvaishnavrko11@gmail.com,The Viper : Randy Orton,
Naresh Vaishnav,8879734967,5.0,"indralok phase 4,Thane 401015",19.3013744,72.8647306,Thane,,Thane,20,nareshvaishnavrko10@gmail.com,injsvd
Aman,9987273647,2,"Mahagaon,akot,akola",21.19503385,77.14402150534315,Akola,,अकोट,20,bhaveshyadav@gmail.com,no
